Gym name,description,latitude,longitude,City,Street,Landmark,phonenumber
Gofit,Gofit is your personal gym for a healthier body and mind.\nEnjoy your training with the best view over the Mediterranean Sea and AUB Campus.,33.898977,35.484326,Beirut,"Abdel Aziz Street, Hamra",Blue Bldg,01 362 720
ohana space,Beautiful light filled yoga space and health bar,33.921113,35.633423,Matn,Antelias - Bikfaiya Road,Above lord of the wings,
AK Yoga Studio,"A.K yoga studio propose different Yoga practice. Yoga is the best way to lose weight, get in shape for people of all ages, and abilities.",33.998472,35.646626,Jounieh,"Jounieh Highway, Haret EsSakher",Rached Center 1st floor,
Body Garage (Sassine),"It is our mission to help you achieve your potential through fitness. Know Your Own StrengthOur mission is to provide an Entertaining, Educational, Friendly, Functional and Innovative experience of uncompromising quality that meets the health and fitness needs",33.8869344,35.5193523,Beirut,"Ashrafieh, Sassine, Sioufi Street",Paragon bld,01 200 090
Body Garage (Sodeco),"It is our mission to help you achieve your potential through fitness. Know Your Own StrengthOur mission is to provide an Entertaining, Educational, Friendly, Functional and Innovative experience of uncompromising quality that meets the health and fitness needs",33.8869564,35.5127862,Beirut,Sodeco,Seifeddine El Khatib Street,01 424 544
Cleanse Yoga Space,"Cleanse is a yoga space and diet clinic, It is the first detox clinic in Lebanon with the objective to change and enhance people’s lifestyle by improving weight, health, energy levels, and self-image using techniques that eliminate sources of toxins.",33.907184,35.578007,Matn,"Jal El Dib, A.K. str.","near the public garden, the Garden Building, 1st floor",